id,type,name,description,address,postal_code,city,department,region,latitude,longitude,website,email,period,specialty,events_url,precision,source,source_ref,last_updated
lib-00977,librairie,Librairie Dialogues,"Grande librairie brestoise, programme de rencontres.",Parvis Marie Paul Kermarec Square Monseigneur Roull 29200 Brest,29200,Brest,29,,48.3874056657417,-4.49040291324532,https://www.librairiedialogues.fr,,,rencontres,https://www.librairiedialogues.fr/agenda,exacte,SIRENE / recherche-entreprises.api.gouv.fr (NAF 47.61Z),844756296,2026-06-28
lib-01058,librairie,Sauramps,"Grande librairie montpelliéraine (Le Triangle), rencontres d'auteurs.",Centre Commercial Le Triangle Allee Jules Milhau 34000 Montpellier,34000,Montpellier,34,,43.608943085,3.8826238492,https://www.sauramps.com,,,rencontres,,exacte,SIRENE / recherche-entreprises.api.gouv.fr (NAF 47.61Z),831301916,2026-06-28
lib-01121,librairie,Ombres Blanches,"Grande librairie indépendante toulousaine, rencontres d'auteurs quasi quotidiennes.",50 Rue Leon Gambetta 31000 Toulouse,31000,Toulouse,31,,43.6033720123649,1.44225832981799,https://www.ombres-blanches.fr,,,rencontres,https://www.ombres-blanches.fr/rencontres/agenda,exacte,SIRENE / recherche-entreprises.api.gouv.fr (NAF 47.61Z),304306947,2026-06-28
lib-01246,librairie,Librairie Mollat,Plus grande librairie indépendante de France ; riche programme de rencontres et dédicaces d'auteurs.,11-15 11 Rue Vital Carles 33000 Bordeaux,33000,Bordeaux,33,,44.841037369,-0.578674326,https://www.mollat.com,,,rencontres,https://www.mollat.com/agenda,exacte,SIRENE / recherche-entreprises.api.gouv.fr (NAF 47.61Z),384798831,2026-06-28
lib-02674,librairie,Librairie Internationale Kleber,"Grande librairie strasbourgeoise, rencontres à la salle Blanche.",1 Rue Des Francs Bourgeois 67000 Strasbourg,67000,Strasbourg,67,,48.582739786,7.7456629127,https://www.librairie-kleber.com,,,rencontres,https://www.librairie-kleber.com/agenda,exacte,SIRENE / recherche-entreprises.api.gouv.fr (NAF 47.61Z),628500894,2026-06-28
lib-03143,librairie,Librairie Le Divan,"Librairie parisienne, rencontres d'auteurs régulières.",203 Rue De La Convention 75015 Paris,75015,Paris,75,,48.83670466,2.2986043152,https://www.librairie-ledivan.com,,,rencontres,,exacte,SIRENE / recherche-entreprises.api.gouv.fr (NAF 47.61Z),572198794,2026-06-28
lib-04109,librairie,Societe Nouvelle Librairie Charlemagne,"Librairie varoise, rencontres et dédicaces.",27 Rue Picot Et 50 Boulevard De Strasbourg 83000 Toulon,83000,Toulon,83,,43.12489901,5.933189231,https://www.librairie-charlemagne.com,,,rencontres,,exacte,SIRENE / recherche-entreprises.api.gouv.fr (NAF 47.61Z),659501837,2026-06-28
renc-00004,librairie,Le Furet du Nord,"Librairie emblématique de Lille, rencontres et dédicaces.",15 Place du Général de Gaulle 59800 Lille,59800,Lille,59,Hauts-de-France,50.636688,3.06308,https://www.furet.com,,,rencontres,https://www.furet.com/agenda,exacte,"Curaté (recherche web) — non exhaustif, à enrichir",,2026-06-28
